City_ID,City,Country,Lat,Lng,Max Temp,Humidity,Cloudiness,Wind Speed,Current Description,Date
0,Pevek,RU,69.7008,170.3133,-22.92,100,95,5.48,overcast clouds,2022-02-05 00:01:30
1,Eureka,US,40.8021,-124.1637,60.67,81,97,5.01,overcast clouds,2022-02-05 00:01:05
2,Lebu,CL,-37.6167,-73.65,58.35,85,2,16.78,clear sky,2022-02-05 00:06:27
3,New Norfolk,AU,-42.7826,147.0587,65.75,59,45,1.01,scattered clouds,2022-02-05 00:02:57
4,Rikitea,PF,-23.1203,-134.9692,79.02,67,5,5.97,clear sky,2022-02-05 00:05:31
5,Norman Wells,CA,65.282,-126.8329,-13.52,87,100,10.27,overcast clouds,2022-02-05 00:06:28
6,Port Alfred,ZA,-33.5906,26.891,68.61,80,98,6.35,overcast clouds,2022-02-05 00:05:34
7,Albany,US,42.6001,-73.9662,21.58,86,100,1.99,snow,2022-02-05 00:04:56
8,Butaritari,KI,3.0707,172.7902,82.58,76,13,19.95,few clouds,2022-02-05 00:05:28
9,Bathsheba,BB,13.2167,-59.5167,77.61,69,20,10.36,few clouds,2022-02-05 00:05:32
10,Chotila,IN,22.4167,71.1833,59.52,57,0,5.39,clear sky,2022-02-05 00:06:29
11,Luderitz,NA,-26.6481,15.1594,67.17,74,9,4.18,clear sky,2022-02-05 00:01:02
12,Tasiilaq,GL,65.6145,-37.6368,24.96,75,100,39.1,overcast clouds,2022-02-05 00:06:29
13,Touros,BR,-5.1989,-35.4608,80.64,72,11,12.93,few clouds,2022-02-05 00:06:29
14,Atuona,PF,-9.8,-139.0333,78.4,77,25,16.58,scattered clouds,2022-02-05 00:06:30
15,Takoradi,GH,4.8845,-1.7554,79.3,82,26,5.7,scattered clouds,2022-02-05 00:05:36
16,Gao,ML,16.6362,1.637,60.75,14,0,11.83,clear sky,2022-02-05 00:01:56
17,Pandan,PH,14.0453,124.1694,76.46,86,100,16.58,overcast clouds,2022-02-05 00:06:30
18,Jamestown,US,42.097,-79.2353,19.29,51,100,3.44,overcast clouds,2022-02-05 00:05:31
19,Dalbandin,PK,28.8947,64.4101,50.43,20,0,4.18,clear sky,2022-02-05 00:06:31
20,Maldonado,UY,-34.6667,-54.9167,69.22,94,34,3.04,scattered clouds,2022-02-05 00:06:31
21,Berdigestyakh,RU,62.0989,126.6992,-28.26,100,96,2.71,overcast clouds,2022-02-05 00:06:32
22,Parbhani,IN,19.2667,76.7833,59.77,27,60,5.57,broken clouds,2022-02-05 00:06:32
23,Ushuaia,AR,-54.8,-68.3,51.46,62,0,11.5,clear sky,2022-02-05 00:05:30
24,Vaini,TO,-21.2,-175.2,78.53,87,100,20.92,moderate rain,2022-02-05 00:05:28
25,North Bend,US,43.4065,-124.2243,53.08,92,100,4.61,overcast clouds,2022-02-05 00:06:33
26,Castro,BR,-24.7911,-50.0119,66.42,98,92,3.78,overcast clouds,2022-02-05 00:05:21
27,Copiapo,CL,-27.3667,-70.3333,71.22,50,0,5.39,clear sky,2022-02-05 00:03:58
28,Tuktoyaktuk,CA,69.4541,-133.0374,-20.85,95,19,13.76,few clouds,2022-02-05 00:06:33
29,Chiredzi,ZW,-21.05,31.6667,70.47,93,80,11.41,light rain,2022-02-05 00:06:34
30,Mtwara,TZ,-10.2667,40.1833,76.53,89,94,7.45,light rain,2022-02-05 00:06:34
31,Yuci,CN,37.6803,112.7319,8.35,66,0,2.24,clear sky,2022-02-05 00:06:34
32,Khatanga,RU,71.9667,102.5,-36.54,100,80,2.75,broken clouds,2022-02-05 00:06:35
33,Bredasdorp,ZA,-34.5322,20.0403,63.28,60,45,14.74,scattered clouds,2022-02-05 00:06:35
34,Saint-Philippe,RE,-21.3585,55.7679,80.15,86,100,25.41,light rain,2022-02-05 00:05:39
35,Chokurdakh,RU,70.6333,147.9167,-31.16,100,26,2.19,scattered clouds,2022-02-05 00:06:35
36,Zyryanovsk,KZ,49.7386,84.2719,-17.54,99,73,2.1,broken clouds,2022-02-05 00:06:36
37,Lianran,CN,24.9227,102.485,39.42,90,0,2.82,clear sky,2022-02-05 00:06:36
38,Kapaa,US,22.0752,-159.319,80.47,72,40,1.99,scattered clouds,2022-02-05 00:06:37
39,Balakhninskiy,RU,58.0106,114.2769,-4.05,100,100,2.42,overcast clouds,2022-02-05 00:06:37
40,Punta Arenas,CL,-53.15,-70.9167,53.11,58,12,4.09,few clouds,2022-02-05 00:01:41
41,Muzhi,RU,65.3667,64.6667,5.22,83,48,8.86,scattered clouds,2022-02-05 00:06:37
42,Mogadishu,SO,2.0371,45.3438,75.92,86,56,18.77,broken clouds,2022-02-05 00:06:38
43,Korla,CN,41.7597,86.1469,25.21,45,100,5.17,overcast clouds,2022-02-04 23:57:20
44,Inirida,CO,3.8653,-67.9239,76.41,86,79,3.02,broken clouds,2022-02-05 00:06:38
45,Busselton,AU,-33.65,115.3333,79.61,37,1,2.48,clear sky,2022-02-05 00:06:38
46,Puerto Ayora,EC,-0.7393,-90.3518,76.55,91,81,3.0,broken clouds,2022-02-05 00:02:58
47,Shache,CN,38.4167,77.2406,22.06,49,27,3.65,scattered clouds,2022-02-05 00:07:39
48,Mataura,NZ,-46.1927,168.8643,58.48,43,86,3.22,overcast clouds,2022-02-05 00:07:40
49,Esperance,AU,-33.8667,121.9,71.83,61,2,13.44,clear sky,2022-02-05 00:02:47
50,Bengkulu,ID,-3.8004,102.2655,73.27,92,100,3.36,light rain,2022-02-05 00:07:40
51,Rio Grande,BR,-32.035,-52.0986,74.95,90,18,8.99,few clouds,2022-02-05 00:07:41
52,Strabychovo,UA,48.3925,22.5431,35.62,92,100,4.99,overcast clouds,2022-02-05 00:07:41
53,Wajima,JP,37.4,136.9,33.15,78,100,20.6,light snow,2022-02-05 00:07:41
54,Yulara,AU,-25.2406,130.9889,74.57,29,0,10.74,clear sky,2022-02-05 00:01:40
55,Mar Del Plata,AR,-38.0023,-57.5575,66.87,85,100,7.0,light rain,2022-02-05 00:06:52
56,Zunyi,CN,27.6867,106.9072,38.07,81,100,6.31,overcast clouds,2022-02-05 00:07:42
57,Gayeri,BF,12.6497,0.4931,67.23,15,3,9.28,clear sky,2022-02-05 00:07:42
58,Hithadhoo,MV,-0.6,73.0833,81.55,73,85,11.43,overcast clouds,2022-02-05 00:05:43
59,Hannibal,US,39.7084,-91.3585,25.52,50,0,6.91,clear sky,2022-02-05 00:07:43
60,Aden,YE,12.7794,45.0367,76.59,52,35,2.82,scattered clouds,2022-02-05 00:07:43
61,Hobart,AU,-42.8794,147.3294,66.11,78,75,5.75,broken clouds,2022-02-05 00:07:43
62,Okha,RU,53.5739,142.9478,2.28,92,100,21.68,overcast clouds,2022-02-05 00:07:44
63,Batagay-Alyta,RU,67.8006,130.4114,-25.92,98,15,2.82,few clouds,2022-02-05 00:01:10
64,Hermanus,ZA,-34.4187,19.2345,63.81,69,1,18.5,clear sky,2022-02-05 00:07:44
65,Sitka,US,57.0531,-135.33,42.69,87,100,10.36,light rain,2022-02-05 00:07:45
66,Quatre Cocos,MU,-20.2078,57.7625,79.09,86,98,17.07,moderate rain,2022-02-05 00:02:55
67,Kodiak,US,57.79,-152.4072,38.71,81,100,5.75,overcast clouds,2022-02-05 00:07:45
68,Porto-Vecchio,FR,41.591,9.2795,51.46,87,75,12.66,broken clouds,2022-02-05 00:04:01
69,Carnarvon,AU,-24.8667,113.6333,88.41,33,80,10.4,broken clouds,2022-02-05 00:01:36
70,Bluff,NZ,-46.6,168.3333,58.8,57,90,5.57,overcast clouds,2022-02-05 00:01:10
71,Lata,PT,40.1629,-8.3327,48.06,96,100,2.26,overcast clouds,2022-02-05 00:07:47
72,Yellowknife,CA,62.456,-114.3525,-25.58,83,69,3.0,broken clouds,2022-02-05 00:06:55
73,Hasaki,JP,35.7333,140.8333,39.6,37,39,22.84,scattered clouds,2022-02-05 00:07:47
74,Geraldton,AU,-28.7667,114.6,88.12,16,0,10.36,clear sky,2022-02-04 23:58:36
75,San Quintin,MX,30.4833,-115.95,60.87,41,1,8.88,clear sky,2022-02-05 00:07:47
76,Berlevag,NO,70.8578,29.0864,22.46,86,100,31.43,light snow,2022-02-05 00:07:48
77,Hokitika,NZ,-42.7167,170.9667,62.47,81,100,7.56,overcast clouds,2022-02-05 00:07:48
78,Ewa Beach,US,21.3156,-158.0072,82.02,56,0,8.01,clear sky,2022-02-05 00:07:48
79,Joensuu,FI,62.6012,29.7632,20.26,91,100,4.0,light shower snow,2022-02-05 00:07:49
80,Nikolskoye,RU,59.7035,30.7861,17.8,89,80,11.83,broken clouds,2022-02-05 00:07:49
81,Belaya Gora,RU,68.5333,146.4167,-39.44,100,49,0.81,scattered clouds,2022-02-05 00:07:49
82,Merauke,ID,-8.4667,140.3333,84.22,74,90,14.67,overcast clouds,2022-02-05 00:07:50
83,Abbeville,FR,50.1,1.8333,39.49,86,51,9.46,broken clouds,2022-02-05 00:07:50
84,Qasigiannguit,GL,68.8193,-51.1922,12.45,90,100,6.02,overcast clouds,2022-02-05 00:07:50
85,Phayakkhaphum Phisai,TH,15.5163,103.1937,66.42,72,39,11.18,scattered clouds,2022-02-05 00:07:51
86,Mangaratiba,BR,-22.9597,-44.0406,80.02,90,95,1.61,overcast clouds,2022-02-05 00:07:51
87,Clyde River,CA,70.4692,-68.5914,-7.37,77,100,5.75,light snow,2022-02-05 00:07:51
88,Hammerfest,NO,70.6634,23.6821,14.45,85,100,17.27,overcast clouds,2022-02-05 00:07:52
89,Saskylakh,RU,71.9167,114.0833,-7.74,99,100,5.57,overcast clouds,2022-02-05 00:07:52
90,Nelson Bay,AU,-32.7167,152.15,76.28,65,86,4.0,overcast clouds,2022-02-05 00:07:52
91,Atar,MR,20.5169,-13.0499,70.9,11,16,5.91,few clouds,2022-02-05 00:08:53
92,Luena,AO,-11.7833,19.9167,61.56,95,100,6.26,overcast clouds,2022-02-05 00:08:53
93,Hofn,IS,64.2539,-15.2082,24.94,64,35,17.36,scattered clouds,2022-02-05 00:01:12
94,Makat,KZ,47.6469,53.3463,31.62,92,100,8.12,overcast clouds,2022-02-05 00:08:53
95,Vardo,NO,70.3705,31.1107,19.6,93,100,32.28,light snow,2022-02-05 00:08:54
96,Pisco,PE,-13.7,-76.2167,68.05,83,0,18.41,clear sky,2022-02-05 00:08:54
97,Klyuchi,RU,52.2667,79.1667,1.38,85,27,7.96,scattered clouds,2022-02-05 00:08:55
98,Sao Domingos,BR,-13.3983,-46.3183,75.38,78,97,2.08,moderate rain,2022-02-05 00:08:55
99,Batie,BF,9.8833,-2.9167,74.41,15,6,4.18,clear sky,2022-02-05 00:08:55
100,Buraydah,SA,26.326,43.975,56.12,36,0,8.39,clear sky,2022-02-05 00:08:56
101,Juegang,CN,32.3174,121.1855,38.91,57,17,12.12,few clouds,2022-02-05 00:08:56
102,Georgetown,MY,5.4112,100.3354,78.73,88,20,5.75,few clouds,2022-02-05 00:06:18
103,Dikson,RU,73.5069,80.5464,-1.97,95,100,6.55,overcast clouds,2022-02-05 00:08:56
104,Loukhi,RU,66.0764,33.0381,14.74,87,100,15.21,overcast clouds,2022-02-05 00:08:57
105,Pafos,CY,34.7667,32.4167,48.11,81,0,3.44,clear sky,2022-02-05 00:08:57
106,Ribeira Grande,PT,38.5167,-28.7,59.36,80,78,14.52,broken clouds,2022-02-05 00:06:45
107,Thomastown,IE,52.5267,-7.1372,38.71,89,15,5.7,few clouds,2022-02-05 00:08:57
108,Cayenne,GF,4.9333,-52.3333,79.09,88,75,3.0,broken clouds,2022-02-05 00:06:58
109,Diedorf,DE,48.35,10.7667,45.23,80,100,13.8,heavy intensity rain,2022-02-05 00:08:58
110,Waren,DE,53.5167,12.6833,37.09,83,100,17.58,overcast clouds,2022-02-05 00:08:58
111,Tuatapere,NZ,-46.1333,167.6833,58.82,56,91,5.23,overcast clouds,2022-02-05 00:08:58
112,Qaanaaq,GL,77.484,-69.3632,0.05,70,100,7.25,overcast clouds,2022-02-05 00:05:28
113,Ust-Uda,RU,54.1742,103.0304,-5.13,100,100,2.59,overcast clouds,2022-02-05 00:08:59
114,Victoria,HK,22.2855,114.1577,57.33,78,99,1.01,overcast clouds,2022-02-05 00:08:59
115,Lorengau,PG,-2.0226,147.2712,84.31,64,89,6.02,overcast clouds,2022-02-05 00:01:07
116,Port Elizabeth,ZA,-33.918,25.5701,66.09,74,100,5.99,overcast clouds,2022-02-05 00:09:00
117,Nome,US,64.5011,-165.4064,4.1,65,100,4.54,overcast clouds,2022-02-05 00:01:10
118,Barrow,US,71.2906,-156.7887,-20.18,69,100,9.22,overcast clouds,2022-02-05 00:01:03
119,Ponta Do Sol,PT,32.6667,-17.1,66.7,65,100,3.36,overcast clouds,2022-02-05 00:09:00
120,Arlit,NE,18.7369,7.3853,58.15,22,0,8.93,clear sky,2022-02-05 00:09:01
121,Lithakia,GR,37.7167,20.8333,46.58,68,10,4.9,clear sky,2022-02-05 00:09:01
122,Faanui,PF,-16.4833,-151.75,80.71,75,41,14.2,scattered clouds,2022-02-05 00:09:01
123,Atasu,KZ,48.6814,71.6433,5.7,80,5,9.17,clear sky,2022-02-05 00:09:02
124,Mwense,ZM,-10.3845,28.698,62.13,99,99,3.02,overcast clouds,2022-02-05 00:09:02
125,Nhulunbuy,AU,-12.2333,136.7667,84.81,74,98,10.36,overcast clouds,2022-02-05 00:09:02
126,Broome,US,42.2506,-75.833,18.37,76,100,3.0,mist,2022-02-05 00:09:03
127,Cabo San Lucas,MX,22.8909,-109.9124,70.14,61,6,6.02,clear sky,2022-02-04 23:55:37
128,Tezu,IN,27.9167,96.1667,54.97,92,100,1.05,overcast clouds,2022-02-05 00:09:03
129,Cherskiy,RU,68.75,161.3,-33.47,98,16,4.32,few clouds,2022-02-05 00:05:25
130,Saldanha,ZA,-33.0117,17.9442,62.15,72,0,14.14,clear sky,2022-02-05 00:09:04
131,Sao Joao Da Barra,BR,-21.6403,-41.0511,76.6,85,39,22.35,scattered clouds,2022-02-05 00:09:04
132,Guerrero Negro,MX,27.9769,-114.0611,65.35,22,0,9.13,clear sky,2022-02-05 00:04:06
133,Hilo,US,19.7297,-155.09,78.62,79,100,8.05,overcast clouds,2022-02-05 00:05:42
134,Smithers,CA,54.7804,-127.1743,38.32,99,85,2.62,overcast clouds,2022-02-05 00:09:05
135,Susanville,US,40.4163,-120.653,47.66,44,0,1.99,clear sky,2022-02-05 00:10:05
136,Bemidji,US,47.4736,-94.8803,-0.63,76,0,6.91,clear sky,2022-02-05 00:10:06
137,Lompoc,US,34.6391,-120.4579,67.08,34,0,10.36,clear sky,2022-02-05 00:05:27
138,Thompson,CA,55.7435,-97.8558,-22.25,98,8,3.4,clear sky,2022-02-05 00:05:47
139,Chuy,UY,-33.6971,-53.4616,70.05,93,5,7.0,clear sky,2022-02-05 00:05:39
140,Isangel,VU,-19.55,169.2667,76.78,93,100,1.41,light rain,2022-02-05 00:01:10
141,Niksar,TR,40.5917,36.9517,23.79,94,91,2.44,overcast clouds,2022-02-05 00:10:06
142,Young,UY,-32.6833,-57.6333,76.23,65,90,7.83,overcast clouds,2022-02-05 00:10:07
143,Acapulco,MX,16.8634,-99.8901,82.22,65,20,3.44,few clouds,2022-02-05 00:06:08
144,Manaure,CO,11.7751,-72.4445,79.09,73,12,21.65,few clouds,2022-02-05 00:10:07
145,Pochutla,MX,15.7432,-96.4661,84.81,60,3,6.55,clear sky,2022-02-05 00:05:28
146,Kirakira,SB,-10.4544,161.9205,83.7,78,98,7.07,overcast clouds,2022-02-05 00:10:08
147,Mambajao,PH,9.2504,124.7156,79.02,81,86,15.08,overcast clouds,2022-02-05 00:10:08
148,Teya,RU,60.3778,92.6267,17.26,90,100,8.84,overcast clouds,2022-02-05 00:10:08
149,Dwarka,IN,22.2394,68.9678,68.77,57,3,9.04,clear sky,2022-02-05 00:06:42
150,La Ronge,CA,55.1001,-105.2842,-10.98,77,100,8.05,overcast clouds,2022-02-05 00:10:09
151,Kaitangata,NZ,-46.2817,169.8464,58.39,48,91,5.46,overcast clouds,2022-02-05 00:10:09
152,Xai-Xai,MZ,-25.0519,33.6442,77.18,75,99,12.24,light rain,2022-02-05 00:08:00
153,Upernavik,GL,72.7868,-56.1549,-0.45,99,95,5.28,overcast clouds,2022-02-05 00:05:40
154,Hamilton,US,39.1834,-84.5333,23.72,85,100,1.01,overcast clouds,2022-02-05 00:06:52
155,Bezhanitsy,RU,56.9767,29.8907,12.69,89,42,10.13,scattered clouds,2022-02-05 00:10:10
156,Krasnyy Oktyabr,RU,56.1167,38.8833,1.4,100,82,4.25,broken clouds,2022-02-05 00:10:10
157,Khadyzhensk,RU,44.4256,39.5319,25.79,93,97,4.88,overcast clouds,2022-02-05 00:10:11
158,East London,ZA,-33.0153,27.9116,68.9,85,99,7.74,light rain,2022-02-05 00:09:24
159,Srednekolymsk,RU,67.45,153.6833,-35.25,100,100,2.53,overcast clouds,2022-02-05 00:10:11
160,Arraial Do Cabo,BR,-22.9661,-42.0278,76.66,87,95,21.39,overcast clouds,2022-02-05 00:02:50
161,Paamiut,GL,61.994,-49.6678,7.68,84,100,8.34,light snow,2022-02-05 00:10:11
162,Rawson,AR,-43.3002,-65.1023,59.31,68,76,22.03,broken clouds,2022-02-05 00:10:12
163,Baykalsk,RU,51.5058,104.1469,9.19,77,40,7.16,scattered clouds,2022-02-05 00:10:12
164,Shingu,JP,33.7333,135.9833,39.9,57,27,16.13,scattered clouds,2022-02-05 00:10:12
165,Camacha,PT,33.0833,-16.3333,59.54,94,20,0.0,few clouds,2022-02-05 00:10:13
166,Nabire,ID,-3.3667,135.4833,81.68,78,100,0.58,overcast clouds,2022-02-05 00:10:13
167,Lindi,TZ,-10.0,39.7167,73.44,96,77,4.03,light rain,2022-02-05 00:10:13
168,Avarua,CK,-21.2078,-159.775,82.45,78,20,16.11,few clouds,2022-02-05 00:06:31
169,Sungairaya,ID,0.7,108.9,76.51,90,99,7.29,overcast clouds,2022-02-05 00:10:14
170,Machinga,MW,-15.1685,35.3,65.98,95,100,3.96,overcast clouds,2022-02-05 00:10:14
171,Tanete,ID,-3.9443,119.7848,79.65,84,100,1.9,overcast clouds,2022-02-05 00:10:14
172,Havelock,US,34.8791,-76.9013,71.02,92,100,11.01,overcast clouds,2022-02-05 00:10:15
173,Iqaluit,CA,63.7506,-68.5145,-16.87,52,75,8.05,broken clouds,2022-02-05 00:10:15
174,Chicama,PE,-7.8447,-79.1469,66.74,70,60,8.3,broken clouds,2022-02-05 00:10:15
175,Bikaner,IN,28.0167,73.3,55.22,48,0,9.24,clear sky,2022-02-05 00:10:16
176,Barra Do Garcas,BR,-15.89,-52.2567,76.03,85,89,1.14,overcast clouds,2022-02-05 00:10:16
177,Lowestoft,GB,52.4752,1.7516,39.45,87,4,18.23,clear sky,2022-02-05 00:10:16
178,Atakpame,TG,7.5333,1.1333,75.7,71,5,3.51,clear sky,2022-02-05 00:10:17
179,Kavieng,PG,-2.5744,150.7967,83.23,70,93,5.61,overcast clouds,2022-02-05 00:05:41
180,Marrakesh,MA,31.6315,-8.0083,62.67,36,20,6.91,few clouds,2022-02-05 00:01:11
181,Filadelfia,US,39.9523,-75.1638,35.49,91,100,4.0,light rain,2022-02-05 00:06:42
182,Ilulissat,GL,69.2167,-51.1,12.22,62,40,16.11,light snow,2022-02-05 00:10:17
183,Maragogi,BR,-9.0122,-35.2225,78.82,76,36,7.81,scattered clouds,2022-02-05 00:11:18
184,Lazaro Cardenas,MX,17.9583,-102.2,77.77,65,8,5.37,clear sky,2022-02-05 00:11:18
185,Lagoa,PT,39.05,-27.9833,57.96,81,64,21.07,broken clouds,2022-02-05 00:11:18
186,Pirai Do Sul,BR,-24.5261,-49.9486,66.04,99,98,3.31,overcast clouds,2022-02-05 00:11:19
187,Abu Zabad,SD,12.35,29.25,62.67,17,88,16.62,overcast clouds,2022-02-05 00:11:19
188,Bahia Honda,CU,22.9036,-83.1592,74.66,82,19,5.5,few clouds,2022-02-05 00:11:19
189,Lubango,AO,-14.9172,13.4925,60.1,52,59,3.29,broken clouds,2022-02-05 00:11:20
190,Cape Town,ZA,-33.9258,18.4232,65.08,58,1,8.01,clear sky,2022-02-05 00:02:08
191,Milas,TR,37.3164,27.7839,38.55,60,0,3.44,clear sky,2022-02-05 00:11:20
192,San Rafael Del Sur,NI,11.8485,-86.4384,86.07,40,6,11.61,clear sky,2022-02-05 00:11:21
193,Manokwari,ID,-0.8667,134.0833,81.63,71,100,6.02,overcast clouds,2022-02-05 00:11:21
194,Alyangula,AU,-13.8483,136.4192,78.67,94,100,3.44,light rain,2022-02-05 00:11:21
195,Codrington,AU,-38.2667,141.9667,68.41,55,82,13.73,broken clouds,2022-02-05 00:09:21
196,Champerico,GT,14.3,-91.9167,88.34,65,7,9.95,clear sky,2022-02-05 00:11:22
197,Beitbridge,ZW,-22.2167,30.0,74.93,78,54,21.94,broken clouds,2022-02-05 00:11:22
198,Banda Aceh,ID,5.5577,95.3222,77.61,82,94,9.26,light rain,2022-02-05 00:11:22
199,Namibe,AO,-15.1961,12.1522,71.42,72,68,7.05,broken clouds,2022-02-05 00:11:23
200,Savelugu,GH,9.6244,-0.8253,76.84,13,2,7.31,clear sky,2022-02-05 00:11:23
201,Severo-Kurilsk,RU,50.6789,156.125,30.7,89,96,7.52,light snow,2022-02-05 00:08:58
202,Kamenka,RU,51.3223,42.7678,11.34,98,94,6.82,overcast clouds,2022-02-05 00:11:24
203,Panaba,MX,21.2833,-88.2667,76.62,76,35,12.71,scattered clouds,2022-02-05 00:11:24
204,Bajil,YE,15.0584,43.2851,75.85,72,9,6.38,clear sky,2022-02-05 00:11:24
205,Valparaiso,CL,-33.0393,-71.6273,63.82,84,1,7.99,clear sky,2022-02-05 00:11:25
206,Tucuman,AR,-26.8241,-65.2226,66.2,100,100,8.05,thunderstorm,2022-02-05 00:11:25
207,Meulaboh,ID,4.1363,96.1285,74.52,89,100,4.38,overcast clouds,2022-02-05 00:11:25
208,Weiser,US,44.251,-116.9693,38.48,74,99,3.0,overcast clouds,2022-02-05 00:10:39
209,Pantai Remis,MY,4.4557,100.6288,75.06,87,37,4.03,scattered clouds,2022-02-05 00:11:26
210,Floro,NO,61.5996,5.0328,37.36,65,100,27.63,overcast clouds,2022-02-05 00:11:26
211,Fairbanks,US,64.8378,-147.7164,7.09,62,75,5.75,broken clouds,2022-02-05 00:11:26
212,Kitami,JP,43.8031,143.8908,16.12,81,69,2.98,broken clouds,2022-02-05 00:11:27
213,Tual,ID,-5.6667,132.75,83.73,77,100,15.82,overcast clouds,2022-02-05 00:06:44
214,Coquimbo,CL,-29.9533,-71.3436,66.09,79,1,4.47,clear sky,2022-02-05 00:09:55
215,Yinchuan,CN,38.4681,106.2731,18.0,35,100,7.92,overcast clouds,2022-02-05 00:11:27
216,Arandis,NA,-22.4167,14.9667,59.47,67,97,4.74,overcast clouds,2022-02-05 00:11:28
217,Svay Rieng,KH,11.0879,105.7993,73.96,72,66,4.94,broken clouds,2022-02-05 00:11:28
218,Tarnogskiy Gorodok,RU,60.4997,43.5761,-8.95,100,95,1.74,overcast clouds,2022-02-05 00:11:28
219,Goderich,CA,43.7501,-81.7165,15.91,92,100,7.99,overcast clouds,2022-02-05 00:11:29
220,Abu Samrah,SY,35.3029,37.1841,43.54,92,77,6.24,broken clouds,2022-02-05 00:08:09
221,Waipawa,NZ,-41.4122,175.5153,57.45,94,100,10.0,light rain,2022-02-05 00:11:29
222,Petropavlovka,RU,50.6114,105.3196,0.84,92,99,4.21,overcast clouds,2022-02-05 00:11:30
223,Buala,SB,-8.145,159.5921,83.37,81,100,7.81,light rain,2022-02-05 00:11:30
224,Lodja,CD,-3.4833,23.4333,68.56,92,99,2.33,overcast clouds,2022-02-05 00:11:30
225,Batemans Bay,AU,-35.7167,150.1833,70.2,76,93,10.63,overcast clouds,2022-02-05 00:09:56
226,Lavumisa,SZ,-27.31,31.892,69.19,97,100,6.26,light rain,2022-02-05 00:11:31
227,Ponta Delgada,PT,37.7333,-25.6667,61.5,72,20,9.22,few clouds,2022-02-05 00:12:31
228,Estelle,US,29.8458,-90.1067,39.99,80,100,7.0,overcast clouds,2022-02-05 00:12:31
229,Saint George,US,37.1041,-113.5841,54.07,22,0,3.44,clear sky,2022-02-05 00:09:12
230,Kurchum,KZ,48.5722,83.6542,-13.36,91,11,1.39,few clouds,2022-02-05 00:12:32
231,Tevriz,RU,57.509,72.4042,21.06,89,100,6.22,overcast clouds,2022-02-05 00:12:32
232,Bethel,US,41.3712,-73.414,32.52,86,100,5.75,light snow,2022-02-05 00:12:32
233,Calamar,CO,10.2511,-74.9146,81.86,64,22,10.96,few clouds,2022-02-05 00:12:33
234,Vila Velha,BR,-20.3297,-40.2925,78.75,91,75,1.99,broken clouds,2022-02-05 00:12:33
235,Seoul,KR,37.5683,126.9778,20.71,40,1,8.43,clear sky,2022-02-05 00:12:33
236,College,US,64.8569,-147.8028,6.8,62,75,5.75,broken clouds,2022-02-05 00:12:29
237,Avera,US,33.194,-82.5271,58.51,87,100,12.26,overcast clouds,2022-02-05 00:12:34
238,Saint-Pierre,RE,-21.3393,55.4781,80.24,83,75,3.44,broken clouds,2022-02-05 00:12:34
239,Hailey,US,43.5196,-114.3153,27.9,73,94,1.1,overcast clouds,2022-02-05 00:10:30
240,Antofagasta,CL,-23.65,-70.4,73.22,58,5,8.75,clear sky,2022-02-05 00:09:13
241,Sioux Lookout,CA,50.1001,-91.917,-14.39,100,87,2.89,overcast clouds,2022-02-05 00:12:35
242,Chuguyevka,RU,44.1653,133.8633,-1.14,94,100,4.38,overcast clouds,2022-02-05 00:12:35
243,Gloucester,GB,51.8657,-2.2431,41.18,79,29,4.0,scattered clouds,2022-02-05 00:12:35
244,Dicabisagan,PH,17.0818,122.4157,74.79,84,98,9.28,overcast clouds,2022-02-05 00:12:36
245,Kaifeng,CN,34.7911,114.3483,28.76,38,5,4.0,clear sky,2022-02-05 00:12:36
246,Cockburn Town,TC,21.4612,-71.1419,75.99,75,0,18.05,clear sky,2022-02-05 00:12:36
247,Dukstas,LT,55.5333,26.3333,25.32,95,100,12.46,light snow,2022-02-05 00:12:37
248,Ojinaga,MX,29.5667,-104.4167,47.57,36,0,5.75,clear sky,2022-02-05 00:12:37
249,Mehamn,NO,71.0357,27.8492,20.66,90,100,31.05,light snow,2022-02-05 00:12:37
250,Genhe,CN,50.7833,121.5167,-2.63,97,100,3.18,overcast clouds,2022-02-05 00:12:38
251,Maningrida,AU,-12.0667,134.2667,82.87,73,98,8.41,overcast clouds,2022-02-05 00:12:38
252,Airai,TL,-8.9266,125.4092,68.16,73,85,1.77,overcast clouds,2022-02-05 00:02:55
253,Moron,AR,-34.6534,-58.6198,76.96,83,99,8.48,overcast clouds,2022-02-05 00:12:39
254,Saint Anthony,US,45.0205,-93.218,6.87,64,0,5.01,clear sky,2022-02-05 00:12:39
255,Coruripe,BR,-10.1256,-36.1756,78.94,75,4,10.63,clear sky,2022-02-05 00:12:39
256,Komsomolskiy,UZ,40.4272,71.7189,33.22,68,33,9.22,scattered clouds,2022-02-05 00:12:40
257,Tadine,NC,-21.55,167.8833,83.17,79,95,12.8,heavy intensity rain,2022-02-05 00:12:40
258,Portland,US,45.5234,-122.6762,51.37,87,100,1.01,overcast clouds,2022-02-05 00:12:40
259,Hojai,IN,26.0,92.8667,57.16,95,100,3.31,overcast clouds,2022-02-05 00:12:41
260,Port Moresby,PG,-9.4431,147.1797,84.31,66,76,10.76,broken clouds,2022-02-05 00:12:41
261,Trelew,AR,-43.249,-65.3051,59.13,66,70,19.37,broken clouds,2022-02-05 00:08:35
262,Shelburne,CA,44.0787,-80.2041,9.12,85,100,6.42,overcast clouds,2022-02-05 00:12:41
263,Sussex,US,41.1834,-74.6663,32.41,80,100,6.91,overcast clouds,2022-02-05 00:12:42
264,Pacific Grove,US,36.6177,-121.9166,68.58,53,0,4.0,clear sky,2022-02-05 00:10:10
265,Arcata,US,40.8665,-124.0828,58.75,80,0,1.01,clear sky,2022-02-05 00:12:42
266,Bramsche,DE,52.4,7.9833,40.01,93,83,17.27,broken clouds,2022-02-05 00:12:42
267,Hay River,CA,60.8156,-115.7999,-9.47,95,100,8.05,overcast clouds,2022-02-05 00:05:44
268,Pyay,MM,18.8167,95.2167,65.73,49,3,2.82,clear sky,2022-02-05 00:12:43
269,Dir,PK,35.2058,71.8756,31.23,35,0,8.39,clear sky,2022-02-05 00:12:43
270,Kawalu,ID,-7.3817,108.2082,74.46,90,98,1.9,overcast clouds,2022-02-05 00:11:44
271,Darab,IR,28.7519,54.5444,55.71,43,0,4.65,clear sky,2022-02-05 00:13:44
272,Devils Lake,US,48.1128,-98.8651,-7.62,75,100,4.0,overcast clouds,2022-02-05 00:13:44
273,Narsaq,GL,60.9167,-46.05,-1.8,60,11,13.82,few clouds,2022-02-05 00:13:44
274,Abalak,RU,58.1286,68.5944,17.87,96,100,4.76,overcast clouds,2022-02-05 00:13:45
275,Enugu,NG,6.4402,7.4943,75.38,17,0,4.65,clear sky,2022-02-05 00:13:45
276,San Vicente,AR,-26.6167,-54.1333,69.24,94,50,1.59,moderate rain,2022-02-05 00:13:45
277,Beloha,MG,-25.1667,45.05,74.59,87,47,15.99,scattered clouds,2022-02-05 00:13:46
278,Marina,US,36.6844,-121.8022,68.99,50,0,5.01,clear sky,2022-02-05 00:10:23
279,Te Anau,NZ,-45.4167,167.7167,58.87,46,24,4.05,few clouds,2022-02-05 00:13:42
280,Dharchula,IN,29.85,80.5333,31.32,74,6,9.37,clear sky,2022-02-05 00:13:46
281,Lavrentiya,RU,65.5833,-171.0,-6.18,77,0,7.72,clear sky,2022-02-05 00:13:47
282,Ostrovnoy,RU,68.0531,39.5131,10.44,88,100,19.1,overcast clouds,2022-02-05 00:11:41
283,Porbandar,IN,21.6422,69.6093,65.61,61,4,5.28,clear sky,2022-02-05 00:13:47
284,Vestmannaeyjar,IS,63.4427,-20.2734,33.53,66,100,29.26,overcast clouds,2022-02-05 00:13:47
285,Payakumbuh,ID,-0.2202,100.6308,68.99,97,100,1.79,overcast clouds,2022-02-05 00:13:48
286,Vila Franca Do Campo,PT,37.7167,-25.4333,60.19,75,100,10.09,overcast clouds,2022-02-05 00:13:48
287,Shimoda,JP,34.6667,138.95,43.11,62,22,28.79,few clouds,2022-02-05 00:13:48
288,Puerto Carreno,CO,6.189,-67.4859,85.37,52,89,3.96,overcast clouds,2022-02-05 00:13:49
289,Laguna,US,38.421,-121.4238,66.29,37,0,1.99,clear sky,2022-02-05 00:13:49
290,Baiao,BR,-2.7906,-49.6717,73.53,96,92,2.33,moderate rain,2022-02-05 00:13:49
291,Namatanai,PG,-3.6667,152.4333,84.42,69,100,9.8,overcast clouds,2022-02-05 00:13:49
292,Hualmay,PE,-11.0964,-77.6139,70.93,81,18,9.4,few clouds,2022-02-05 00:13:50
293,Bakonyszentlaszlo,HU,47.389,17.8032,38.5,89,67,4.7,broken clouds,2022-02-05 00:13:50
294,Avenal,US,36.0041,-120.129,68.29,23,0,3.78,clear sky,2022-02-05 00:13:50
295,Noumea,NC,-22.2763,166.4572,89.58,73,100,7.63,overcast clouds,2022-02-05 00:13:51
296,Westport,US,41.1415,-73.3579,34.81,92,100,1.01,overcast clouds,2022-02-05 00:11:37
297,Rongcheng,CN,30.634,117.8517,37.45,80,0,2.84,clear sky,2022-02-05 00:13:51
298,Sorland,NO,67.667,12.6934,31.03,71,55,27.22,broken clouds,2022-02-05 00:13:52
299,Saint-Augustin,CA,51.226,-58.6502,-4.94,84,100,9.06,overcast clouds,2022-02-05 00:13:52
300,Manyana,BW,-23.4,21.7167,72.18,64,25,2.84,light rain,2022-02-05 00:13:52
301,Sorong,ID,-0.8833,131.25,83.01,77,100,13.51,overcast clouds,2022-02-05 00:13:52
302,Duobao,CN,30.67,112.6895,36.97,71,5,5.57,clear sky,2022-02-05 00:13:53
303,Provideniya,RU,64.3833,-173.3,3.6,60,4,12.12,clear sky,2022-02-05 00:13:53
304,Kaduqli,SD,11.0167,29.7167,68.83,15,97,15.84,overcast clouds,2022-02-05 00:13:53
305,San Andres,CO,12.5847,-81.7006,80.22,74,13,13.53,few clouds,2022-02-05 00:13:54
306,Xuddur,SO,4.1213,43.8894,68.7,71,8,13.04,clear sky,2022-02-05 00:13:54
307,Llanes,ES,43.4198,-4.7549,54.9,92,91,10.85,overcast clouds,2022-02-05 00:13:54
308,Puerto Escondido,MX,15.85,-97.0667,80.13,63,0,4.27,clear sky,2022-02-05 00:13:55
309,Alasehir,TR,38.3508,28.5172,34.93,75,2,2.26,clear sky,2022-02-05 00:13:55
310,Tianpeng,CN,30.9866,103.9393,39.47,92,100,1.54,overcast clouds,2022-02-05 00:13:55
311,Aykhal,RU,66.0,111.5,-26.16,100,86,4.41,overcast clouds,2022-02-05 00:11:41
312,Ishigaki,JP,24.3448,124.1572,63.3,73,100,26.51,overcast clouds,2022-02-05 00:13:56
313,Alamosa,US,37.4695,-105.87,21.34,57,0,3.44,clear sky,2022-02-05 00:13:56
314,Aksu,CN,41.1231,80.2644,26.37,65,97,6.26,overcast clouds,2022-02-05 00:13:57
315,Dunedin,NZ,-45.8742,170.5036,57.79,53,100,8.01,overcast clouds,2022-02-05 00:13:57
316,Cap Malheureux,MU,-19.9842,57.6142,79.47,83,90,5.99,overcast clouds,2022-02-05 00:13:57
317,Luganville,VU,-15.5333,167.1667,80.17,84,100,3.69,overcast clouds,2022-02-05 00:13:58
318,Tautira,PF,-17.7333,-149.15,84.22,76,27,15.32,light rain,2022-02-05 00:13:58
319,Limoges,FR,45.75,1.3333,44.24,93,100,10.36,light intensity drizzle,2022-02-05 00:11:51
320,Camocim,BR,-2.9022,-40.8411,77.92,86,81,11.65,broken clouds,2022-02-05 00:14:30
321,Kohlu,PK,29.8962,69.252,45.03,30,0,1.79,clear sky,2022-02-05 00:14:59
322,Northam,GB,51.0333,-4.2167,45.61,71,39,14.45,scattered clouds,2022-02-05 00:14:59
323,Cacu,BR,-18.5567,-51.1308,74.1,77,82,3.78,heavy intensity rain,2022-02-05 00:14:59
324,Desbiens,CA,48.4178,-71.9495,-3.35,94,87,4.97,overcast clouds,2022-02-05 00:14:59
325,Constitucion,CL,-35.3333,-72.4167,60.98,82,12,14.79,few clouds,2022-02-05 00:15:00
326,Cidreira,BR,-30.1811,-50.2056,72.82,93,99,6.33,overcast clouds,2022-02-05 00:15:00
327,Roebourne,AU,-20.7833,117.1333,88.5,60,77,11.61,broken clouds,2022-02-05 00:15:00
328,Hinton,CA,53.4001,-117.5857,31.95,87,100,5.82,overcast clouds,2022-02-05 00:15:01
329,Zilupe,LV,56.3862,28.1217,17.53,90,78,12.12,broken clouds,2022-02-05 00:15:01
330,Broken Hill,AU,-31.95,141.4333,74.14,40,85,18.03,overcast clouds,2022-02-05 00:15:02
331,Mutsu,JP,41.2894,141.2169,26.01,100,75,5.75,broken clouds,2022-02-05 00:15:02
332,Slave Lake,CA,55.2834,-114.769,3.18,85,100,5.75,overcast clouds,2022-02-05 00:15:02
333,Mahebourg,MU,-20.4081,57.7,79.25,86,100,18.81,light rain,2022-02-05 00:15:03
334,Ancud,CL,-41.8697,-73.8203,61.43,82,81,2.39,broken clouds,2022-02-05 00:15:03
335,Leshukonskoye,RU,64.8989,45.7622,-10.05,100,100,3.15,overcast clouds,2022-02-05 00:15:03
336,Riyadh,SA,24.6877,46.7219,68.14,54,45,13.89,scattered clouds,2022-02-05 00:12:36
337,Minsk,BY,53.9,27.5667,22.75,96,97,11.65,overcast clouds,2022-02-05 00:11:02
338,Sirjan,IR,29.452,55.6814,50.13,37,0,9.15,clear sky,2022-02-05 00:15:04
339,Neiafu,TO,-18.65,-173.9833,80.69,80,100,20.98,light rain,2022-02-05 00:11:46
340,Klaksvik,FO,62.2266,-6.589,36.52,53,90,31.07,overcast clouds,2022-02-05 00:15:04
341,Ahipara,NZ,-35.1667,173.1667,78.1,72,81,16.58,light rain,2022-02-05 00:15:05
342,Carutapera,BR,-1.195,-46.02,75.94,94,99,5.23,light rain,2022-02-05 00:15:05
343,Eyl,SO,7.9803,49.8164,69.69,69,11,7.96,few clouds,2022-02-05 00:15:05
344,Lenger,KZ,42.183,69.8839,26.04,23,41,6.55,scattered clouds,2022-02-05 00:15:06
345,Cananeia,BR,-25.0147,-47.9267,76.86,90,95,4.16,moderate rain,2022-02-05 00:15:06
346,Swan Hill,AU,-35.3378,143.5544,75.83,32,71,13.0,broken clouds,2022-02-05 00:14:25
347,Inta,RU,66.0317,60.1659,3.6,98,98,6.29,overcast clouds,2022-02-05 00:15:06
348,Mut,TR,36.6439,33.4389,33.31,73,9,9.82,clear sky,2022-02-05 00:15:07
349,Kamina,CD,-8.7386,24.9906,59.29,96,91,1.01,overcast clouds,2022-02-05 00:15:07
350,Torbay,CA,47.6666,-52.7314,32.76,96,100,10.36,snow,2022-02-05 00:15:07
351,Sabang,ID,5.8933,95.3214,81.93,73,85,16.24,overcast clouds,2022-02-05 00:15:08
352,Nanortalik,GL,60.1432,-45.2371,11.55,70,100,38.39,overcast clouds,2022-02-05 00:05:40
353,Karatau,KZ,43.1667,70.4667,25.5,90,23,2.28,few clouds,2022-02-05 00:15:08
354,Huty,UA,50.1332,35.3439,9.48,99,90,5.14,overcast clouds,2022-02-05 00:15:09
355,Pasinler,TR,39.9803,41.6764,25.79,95,100,4.36,light snow,2022-02-05 00:15:09
356,Yumen,CN,40.2833,97.2,14.65,39,100,12.88,overcast clouds,2022-02-05 00:15:09
357,Storforshei,NO,66.4043,14.5233,15.58,92,65,8.19,light snow,2022-02-05 00:15:10
358,Vao,NC,-22.6667,167.4833,80.17,87,100,17.67,overcast clouds,2022-02-05 00:15:10
359,Port Lincoln,AU,-34.7333,135.8667,69.62,69,83,13.29,broken clouds,2022-02-05 00:15:10
360,Bani Walid,LY,31.7566,13.9942,54.18,30,1,10.27,clear sky,2022-02-05 00:15:11
361,Nioro,GM,13.35,-15.75,78.4,11,0,3.85,clear sky,2022-02-05 00:15:11
362,Matamoros,MX,25.5333,-103.25,50.11,46,40,6.91,scattered clouds,2022-02-05 00:13:12
363,Cherrapunji,IN,25.3,91.7,41.97,92,99,3.36,overcast clouds,2022-02-05 00:15:11
364,San Policarpo,PH,12.1791,125.5072,79.83,81,100,17.58,overcast clouds,2022-02-05 00:15:12
365,Camargo,MX,27.6667,-105.1667,47.44,22,2,10.69,clear sky,2022-02-05 00:15:12
366,Luanda,AO,-8.8368,13.2343,75.2,88,20,6.91,few clouds,2022-02-05 00:15:12
367,Shima,CN,24.4478,117.8111,52.21,83,98,6.93,overcast clouds,2022-02-05 00:16:13
368,Souillac,MU,-20.5167,57.5167,79.36,86,98,16.53,light rain,2022-02-05 00:16:13
369,Mayskiy,RU,47.6931,40.1025,33.44,85,99,8.37,overcast clouds,2022-02-05 00:16:13
370,Bridgwater,GB,51.1284,-3.0036,42.89,82,45,10.33,scattered clouds,2022-02-05 00:16:14
371,Abay,KZ,49.6311,72.8539,-5.42,78,7,5.84,clear sky,2022-02-05 00:16:14
372,Olga,RU,43.7444,135.2892,7.9,54,66,14.74,broken clouds,2022-02-05 00:16:14
373,Sarankhola,BD,22.3082,89.7897,63.3,92,26,5.28,scattered clouds,2022-02-05 00:16:15
374,Shelbyville,US,35.4834,-86.4603,30.11,69,100,5.01,overcast clouds,2022-02-05 00:16:15
375,Dunn,US,44.95,-91.8835,9.81,74,99,11.5,overcast clouds,2022-02-05 00:16:15
376,Uruzgan,AF,32.8333,66.0,32.77,38,0,8.63,clear sky,2022-02-05 00:16:16
377,Saint-Georges,GD,12.0564,-61.7485,76.68,78,20,10.36,few clouds,2022-02-05 00:16:16
378,Murgab,TM,37.4966,61.9714,46.27,53,0,9.22,clear sky,2022-02-05 00:16:16
379,Taseyevo,RU,57.2169,94.8978,20.53,92,100,10.63,light snow,2022-02-05 00:16:17
380,Mpongwe,ZM,-13.5091,28.155,62.4,99,100,3.15,overcast clouds,2022-02-05 00:16:17
381,Beringovskiy,RU,63.05,179.3167,-7.74,86,69,11.83,broken clouds,2022-02-05 00:16:18
382,Ratangarh,IN,28.0833,74.6,52.36,56,0,8.1,clear sky,2022-02-05 00:16:18
383,Stabat,ID,3.761,98.4513,75.4,96,93,2.59,overcast clouds,2022-02-05 00:16:18
384,Marsa Matruh,EG,31.3525,27.2453,54.1,64,73,13.82,broken clouds,2022-02-05 00:16:19
385,Krasnoturansk,RU,54.3186,91.5639,-17.61,96,100,3.44,overcast clouds,2022-02-05 00:16:19
386,Marsh Harbour,BS,26.5412,-77.0636,73.81,63,60,8.63,broken clouds,2022-02-05 00:16:19
387,Florianopolis,BR,-27.6146,-48.5012,77.38,91,75,3.0,broken clouds,2022-02-05 00:13:56
388,Port Hedland,AU,-20.3167,118.5667,91.45,62,100,12.66,overcast clouds,2022-02-05 00:16:20
389,Half Moon Bay,US,37.4636,-122.4286,66.79,48,0,6.91,clear sky,2022-02-05 00:14:55
390,Mount Gambier,AU,-37.8333,140.7667,68.54,51,93,10.87,overcast clouds,2022-02-05 00:16:20
391,Puri,IN,19.8,85.85,63.12,54,2,10.47,clear sky,2022-02-05 00:16:21
392,Sao Filipe,CV,14.8961,-24.4956,73.94,70,0,6.42,clear sky,2022-02-05 00:16:21
393,Malazgirt,TR,39.1427,42.5401,21.7,97,99,1.88,light snow,2022-02-05 00:14:01
394,Salinopolis,BR,-0.6136,-47.3561,78.42,85,100,8.97,light rain,2022-02-05 00:15:20
395,Ivdel,RU,60.6911,60.4206,8.98,95,100,0.69,overcast clouds,2022-02-05 00:16:22
396,Uuemoisa,EE,58.9394,23.5894,32.04,91,100,20.4,overcast clouds,2022-02-05 00:16:22
397,Vurnary,RU,55.4904,46.9648,22.24,96,100,10.31,snow,2022-02-05 00:16:22
398,Sangar,RU,63.9242,127.4739,-35.82,100,100,0.65,overcast clouds,2022-02-05 00:16:23
399,Veere,NL,51.5483,3.6667,44.6,80,20,8.99,few clouds,2022-02-05 00:16:23
400,Tarnok,HU,47.3733,18.8458,34.18,79,69,1.07,broken clouds,2022-02-05 00:16:24
401,Calama,CL,-22.4667,-68.9333,60.58,16,0,11.9,clear sky,2022-02-05 00:14:07
402,Verkhnevilyuysk,RU,63.4453,120.3167,-22.63,99,49,1.14,scattered clouds,2022-02-05 00:13:06
403,Porirua,NZ,-41.1333,174.85,62.55,93,100,17.54,light rain,2022-02-05 00:15:16
404,Taoudenni,ML,22.6783,-3.9836,66.6,13,74,10.18,broken clouds,2022-02-05 00:16:24
405,Naranjito,EC,-2.2167,-79.4833,82.08,89,55,3.49,moderate rain,2022-02-05 00:16:25
406,Salalah,OM,17.0151,54.0924,68.56,77,3,2.1,clear sky,2022-02-05 00:16:25
407,Palmer,US,42.1584,-72.3287,31.03,86,100,4.61,snow,2022-02-05 00:16:25
408,Surab,PK,28.4914,66.2585,45.46,12,0,5.64,clear sky,2022-02-05 00:17:26
409,Kabo,CF,7.6994,18.629,71.76,17,32,5.46,scattered clouds,2022-02-05 00:17:26
410,Gagnoa,CI,6.1293,-5.9437,72.99,88,49,2.33,scattered clouds,2022-02-05 00:17:26
411,Bambous Virieux,MU,-20.3428,57.7575,79.21,86,100,18.39,light rain,2022-02-05 00:17:27
412,Talnakh,RU,69.4865,88.3972,1.2,97,98,6.13,overcast clouds,2022-02-05 00:17:27
413,Porto Novo,BJ,6.4965,2.6036,82.22,84,1,6.64,clear sky,2022-02-05 00:17:27
414,Hirado,JP,33.3597,129.5531,40.35,58,100,26.46,overcast clouds,2022-02-05 00:17:28
415,Naze,JP,28.3667,129.4833,52.77,65,83,18.16,broken clouds,2022-02-05 00:14:16
416,Arman,RU,59.7,150.1667,-1.28,72,87,12.93,overcast clouds,2022-02-05 00:17:28
417,Bac Lieu,VN,9.285,105.7244,78.17,75,86,19.13,overcast clouds,2022-02-05 00:17:28
418,Lang Son,VN,21.8333,106.7333,47.52,84,49,3.98,scattered clouds,2022-02-05 00:17:29
419,Bilibino,RU,68.0546,166.4372,-7.47,78,1,4.76,clear sky,2022-02-05 00:17:29
420,Shubarkuduk,KZ,49.1447,56.4872,27.68,85,100,16.91,overcast clouds,2022-02-05 00:17:29
421,Harstad,NO,68.799,16.5293,25.83,84,100,11.41,overcast clouds,2022-02-05 00:17:30
422,Yar-Sale,RU,66.8333,70.8333,5.97,96,100,5.91,overcast clouds,2022-02-05 00:17:30
423,Balykshi,KZ,47.0667,51.8667,32.0,100,100,6.71,mist,2022-02-05 00:17:30
424,Taltal,CL,-25.4,-70.4833,68.81,71,15,4.74,few clouds,2022-02-05 00:15:19
425,Karlstad,SE,59.3793,13.5036,32.56,93,76,10.36,broken clouds,2022-02-05 00:17:31
426,Vathi,GR,38.4,23.6,47.71,66,1,2.51,clear sky,2022-02-05 00:17:31
427,Egvekinot,RU,66.3167,-179.1667,-1.73,69,0,13.53,clear sky,2022-02-05 00:17:32
428,Nuevo Laredo,MX,27.4763,-99.5164,48.18,35,20,18.41,few clouds,2022-02-05 00:17:32
429,Teknaf,BD,20.8624,92.3058,63.32,84,31,5.44,scattered clouds,2022-02-05 00:17:32
430,Khandyga,RU,62.6667,135.6,-40.7,100,59,1.36,broken clouds,2022-02-05 00:17:33
431,Aklavik,CA,68.2191,-135.0107,-24.09,92,9,16.28,clear sky,2022-02-05 00:14:23
432,Acarau,BR,-2.8856,-40.12,78.94,82,58,11.03,broken clouds,2022-02-05 00:17:33
433,Kargil,IN,34.5667,76.1,-23.01,89,73,2.77,broken clouds,2022-02-05 00:17:33
434,Pangnirtung,CA,66.1451,-65.7125,-24.0,99,100,1.14,overcast clouds,2022-02-05 00:17:34
435,Redlands,US,34.0556,-117.1825,67.17,19,0,5.75,clear sky,2022-02-05 00:15:20
436,Roald,NO,62.5833,6.1333,40.33,81,75,37.98,broken clouds,2022-02-05 00:13:53
437,El Paujil,CO,1.5701,-75.3286,76.89,79,100,1.9,very heavy rain,2022-02-05 00:17:34
438,Palmas,BR,-10.2128,-48.3603,80.47,89,20,4.61,few clouds,2022-02-05 00:17:35
439,Santa Isabel Do Rio Negro,BR,-0.4139,-65.0192,75.11,93,94,3.36,overcast clouds,2022-02-05 00:17:35
440,Udachnyy,RU,66.4167,112.4,-33.86,100,65,3.58,broken clouds,2022-02-05 00:17:35
441,Emerald,AU,-23.5333,148.1667,80.35,46,0,16.78,clear sky,2022-02-05 00:17:36
442,Oistins,BB,13.0667,-59.5333,77.09,69,20,10.36,few clouds,2022-02-05 00:13:36
443,Cap-Aux-Meules,CA,47.3821,-61.8597,21.25,93,100,28.77,overcast clouds,2022-02-05 00:17:36
444,Luocheng,CN,29.3848,104.0286,42.4,81,96,3.0,overcast clouds,2022-02-05 00:17:37
445,Sayyan,YE,15.1718,44.3244,53.53,82,37,4.54,scattered clouds,2022-02-05 00:17:37
446,Mwene-Ditu,CD,-7.0,23.45,62.69,98,100,1.45,overcast clouds,2022-02-05 00:17:37
447,Henties Bay,NA,-22.116,14.2845,65.86,83,95,4.09,overcast clouds,2022-02-05 00:17:38
448,Montargis,FR,47.8333,2.75,34.56,89,23,5.1,few clouds,2022-02-05 00:17:38
449,Tupancireta,BR,-29.0806,-53.8358,72.5,84,72,4.74,broken clouds,2022-02-05 00:17:38
450,Mount Isa,AU,-20.7333,139.5,83.97,30,18,12.66,few clouds,2022-02-05 00:17:39
451,Gardner,US,42.5751,-71.9981,26.49,90,100,6.91,snow,2022-02-05 00:17:39
452,Bowen,AU,-20.0167,148.2333,82.24,66,99,19.95,overcast clouds,2022-02-05 00:17:39
453,Kvareli,GE,41.9524,45.8151,40.53,65,100,7.38,overcast clouds,2022-02-05 00:17:39
454,Kahului,US,20.8947,-156.47,83.46,70,20,14.97,few clouds,2022-02-05 00:18:40
455,Rayong,TH,12.8333,101.4333,79.03,99,62,4.68,broken clouds,2022-02-05 00:18:40
456,Seydi,TM,39.4816,62.9137,45.9,34,6,17.69,clear sky,2022-02-05 00:18:41
457,Katsuura,JP,35.1333,140.3,48.18,47,64,12.77,broken clouds,2022-02-05 00:18:41
458,Glendive,US,47.1053,-104.7125,28.49,61,0,10.36,clear sky,2022-02-05 00:18:41
459,Hailar,CN,49.2,119.7,-5.21,92,99,5.14,overcast clouds,2022-02-05 00:18:42
460,Vostok,RU,46.4856,135.8833,-6.43,95,100,2.93,overcast clouds,2022-02-05 00:18:42
461,Rurrenabaque,BO,-14.4413,-67.5278,79.29,77,77,5.39,broken clouds,2022-02-05 00:18:42
462,Tura,IN,25.5198,90.2201,53.08,96,76,3.27,broken clouds,2022-02-05 00:18:43
463,Tanout,NE,14.9709,8.8879,54.97,20,0,13.89,clear sky,2022-02-05 00:18:43
464,Dingle,PH,10.9995,122.6711,76.06,86,96,12.3,overcast clouds,2022-02-05 00:18:43
465,Sampit,ID,-2.5333,112.95,75.51,96,100,0.67,overcast clouds,2022-02-05 00:18:44
466,Maniitsoq,GL,65.4167,-52.9,6.42,74,100,10.49,overcast clouds,2022-02-05 00:18:44
467,Ngunguru,NZ,-35.6167,174.5,75.16,82,43,15.19,scattered clouds,2022-02-05 00:18:44
468,Cashel,IE,52.5158,-7.8856,38.89,92,10,6.85,clear sky,2022-02-05 00:18:45
469,Monrovia,LR,6.3005,-10.7969,78.57,83,41,5.03,scattered clouds,2022-02-05 00:18:45
470,Lanzhou,CN,36.0564,103.7922,18.68,87,100,6.96,light snow,2022-02-05 00:18:45
471,Aojiang,CN,22.9421,116.0359,52.02,75,96,8.48,overcast clouds,2022-02-05 00:18:46
472,Rio Gallegos,AR,-51.6226,-69.2181,53.65,58,0,16.11,clear sky,2022-02-05 00:18:46
473,Gejiu,CN,23.306,103.1635,36.61,93,61,4.76,broken clouds,2022-02-05 00:18:46
474,Muli,MV,2.9167,73.5667,81.82,73,81,8.46,broken clouds,2022-02-05 00:18:47
475,Poronaysk,RU,49.2167,143.1167,13.42,79,100,10.54,overcast clouds,2022-02-05 00:18:47
476,Puerto Castilla,HN,16.0167,-85.9667,80.51,83,40,0.0,scattered clouds,2022-02-05 00:18:47
477,Alice Springs,AU,-23.7,133.8833,72.95,46,1,12.66,clear sky,2022-02-05 00:15:22
478,Inverell,AU,-29.7833,151.1167,72.1,54,0,8.99,clear sky,2022-02-05 00:18:48
479,Torata,PE,-17.0769,-70.8433,58.91,71,8,3.94,clear sky,2022-02-05 00:18:48
480,Ulaangom,MN,49.9811,92.0667,-23.4,93,93,2.95,overcast clouds,2022-02-05 00:18:48
481,Bluffton,US,32.2371,-80.8604,66.27,95,100,4.61,overcast clouds,2022-02-05 00:18:49
482,Barquisimeto,VE,10.0739,-69.3228,72.93,64,83,5.03,broken clouds,2022-02-05 00:17:19
483,Kruisfontein,ZA,-34.0033,24.7314,63.88,72,98,4.97,overcast clouds,2022-02-05 00:18:49
484,Lasa,IT,46.6166,10.7002,38.66,74,65,5.91,broken clouds,2022-02-05 00:18:50
485,Czersk,PL,53.7959,17.9765,41.56,90,100,14.83,overcast clouds,2022-02-05 00:18:50
486,Talcahuano,CL,-36.7167,-73.1167,61.68,75,1,17.45,clear sky,2022-02-05 00:15:15
487,Pouembout,NC,-21.1333,164.9,85.89,72,100,9.44,light rain,2022-02-05 00:18:50
488,Wladyslawowo,PL,54.7909,18.4009,44.94,94,100,19.17,overcast clouds,2022-02-05 00:18:51
489,Mahon,ES,39.8885,4.2658,50.56,87,0,4.61,clear sky,2022-02-05 00:18:51
490,Dhidhdhoo,MV,6.8833,73.1,81.21,63,64,7.38,broken clouds,2022-02-05 00:18:51
491,Marsabit,KE,2.3284,37.9899,70.61,46,95,3.71,overcast clouds,2022-02-05 00:18:52
492,Kasongo-Lunda,CD,-6.4667,16.8167,68.49,96,91,0.81,overcast clouds,2022-02-05 00:18:52
493,Khasan,RU,42.4308,130.6434,12.02,55,4,22.08,clear sky,2022-02-05 00:18:52
494,Jijiga,ET,9.35,42.8,59.0,19,19,4.43,few clouds,2022-02-05 00:18:53
495,Basco,PH,20.4487,121.9702,72.21,77,100,29.06,overcast clouds,2022-02-05 00:18:53
496,Bandarbeyla,SO,9.4942,50.8122,72.81,74,1,5.97,clear sky,2022-02-05 00:18:53
497,Faya,SA,18.3851,42.4509,55.51,88,26,5.77,scattered clouds,2022-02-05 00:18:54
498,Yafran,LY,32.0633,12.5286,49.69,31,7,10.65,clear sky,2022-02-05 00:18:54
499,Rio Cuarto,AR,-33.1307,-64.3499,71.37,73,20,4.61,few clouds,2022-02-05 00:18:54
500,Isla Aguada,MX,18.7833,-91.4667,75.24,84,17,18.7,few clouds,2022-02-05 00:18:54
501,New Ulm,US,44.3125,-94.4605,0.1,78,40,16.11,scattered clouds,2022-02-05 00:19:55
502,Gimli,CA,50.6336,-96.9907,-13.88,76,86,3.44,overcast clouds,2022-02-05 00:19:55
503,Kathu,TH,7.9178,98.3332,80.42,76,92,18.72,overcast clouds,2022-02-05 00:19:56
504,Pangai,TO,-19.8,-174.35,78.51,89,100,25.14,moderate rain,2022-02-05 00:19:56
505,Monzon,ES,41.9108,0.1941,49.42,64,100,1.59,overcast clouds,2022-02-05 00:19:56
506,Ballina,AU,-28.8667,153.5667,68.77,86,97,20.33,overcast clouds,2022-02-05 00:19:57
507,Caetes,BR,-8.7731,-36.6225,68.11,84,25,11.52,scattered clouds,2022-02-05 00:19:57
508,Wajir,KE,1.7471,40.0573,78.33,56,80,11.05,broken clouds,2022-02-05 00:19:58
509,Vestmanna,FO,62.1564,-7.1664,34.72,51,100,21.85,overcast clouds,2022-02-05 00:19:58
510,The Valley,AI,18.217,-63.0578,72.82,81,100,16.17,overcast clouds,2022-02-05 00:15:11
511,Whitehorse,CA,60.7161,-135.0538,-0.98,73,75,0.0,light snow,2022-02-05 00:16:15
512,Ola,RU,59.5833,151.2833,-1.52,77,75,11.39,broken clouds,2022-02-05 00:19:59
513,Gambo,CF,4.6482,22.2633,71.73,41,99,1.48,overcast clouds,2022-02-05 00:19:59
514,Jiaocheng,CN,24.6774,116.1389,45.28,84,100,2.95,overcast clouds,2022-02-05 00:19:59
515,Umm Kaddadah,SD,13.6017,26.6876,60.19,23,7,18.41,clear sky,2022-02-05 00:18:06
516,Hovd,MN,48.0056,91.6419,-11.72,78,10,3.33,clear sky,2022-02-05 00:20:00
517,Balkhash,KZ,46.844,74.9804,7.86,80,1,11.1,clear sky,2022-02-05 00:20:01
518,Leningradskiy,RU,69.3833,178.4167,-14.35,91,65,9.17,broken clouds,2022-02-05 00:17:52
519,Sambava,MG,-14.2667,50.1667,76.44,84,100,4.07,overcast clouds,2022-02-05 00:20:01
520,Alakurtti,RU,66.9672,30.3491,15.58,94,100,15.77,light snow,2022-02-05 00:20:02
521,Havoysund,NO,70.9963,24.6622,14.88,79,100,30.02,light snow,2022-02-05 00:20:02
522,Tiksi,RU,71.6872,128.8694,-21.26,98,98,7.09,overcast clouds,2022-02-05 00:18:03
523,Requena,ES,39.4883,-1.1004,48.13,54,100,0.6,overcast clouds,2022-02-05 00:20:03
524,Trinidad,BO,-14.8333,-64.9,76.12,95,98,4.7,moderate rain,2022-02-05 00:20:03
525,Piranhas,BR,-16.4269,-51.8222,75.83,82,100,2.06,overcast clouds,2022-02-05 00:20:04
526,Caravelas,BR,-17.7125,-39.2481,76.93,86,100,8.23,overcast clouds,2022-02-05 00:20:04
527,Rantauprapat,ID,2.1,99.8333,72.01,97,100,2.46,overcast clouds,2022-02-05 00:20:04
528,Kavaratti,IN,10.5669,72.642,77.7,59,93,4.56,overcast clouds,2022-02-05 00:20:04
529,Mecca,SA,21.4267,39.8261,59.43,57,37,13.22,scattered clouds,2022-02-05 00:20:05
530,Sultepec,MX,18.8667,-99.95,64.29,36,5,4.16,clear sky,2022-02-05 00:20:05
531,Shibetsu,JP,43.659,145.132,23.7,63,40,6.91,scattered clouds,2022-02-05 00:20:06
532,Viru,PE,-8.4167,-78.75,67.3,73,40,5.77,scattered clouds,2022-02-05 00:20:06
533,Andenes,NO,69.3143,16.1194,26.58,74,75,19.57,broken clouds,2022-02-05 00:20:06
534,Ca Mau,VN,9.1769,105.15,77.9,71,59,11.86,broken clouds,2022-02-05 00:20:07
535,Birao,CF,10.2849,22.7882,74.19,14,9,13.13,clear sky,2022-02-05 00:20:07
536,Imperia,IT,43.9667,7.7833,45.41,87,70,5.06,broken clouds,2022-02-05 00:20:07
537,Evanston,US,42.0411,-87.6901,20.98,81,100,1.99,overcast clouds,2022-02-05 00:18:16
538,Corinto,GR,37.9407,22.9573,46.69,77,1,4.12,clear sky,2022-02-05 00:20:08
539,Barreirinhas,BR,-2.7469,-42.8264,75.29,93,100,5.17,heavy intensity rain,2022-02-05 00:20:08
540,Arkadak,RU,51.9326,43.4978,13.78,97,88,7.23,overcast clouds,2022-02-05 00:20:08
541,Barcelos,PT,41.5388,-8.6151,50.85,89,86,4.61,overcast clouds,2022-02-05 00:20:09
542,Nizhniy Kuranakh,RU,58.8353,125.4869,-6.36,99,100,3.49,overcast clouds,2022-02-05 00:20:09
